,City,Lat,Lng,Max Temp,Humidity,Cloudiness,Wind Speed,Country,Date
0,tiksi,71.6872,128.8694,-25.55,85,100,3.18,RU,1611159744
1,bluff,-46.6,168.3333,53.01,83,74,11.99,NZ,1611159744
2,hualmay,-11.0964,-77.6139,76.1,68,27,11.5,PE,1611159744
3,puerto ayora,-0.7393,-90.3518,82.4,69,20,19.57,EC,1611159744
4,rikitea,-23.1203,-134.9692,78.13,75,37,14.72,PF,1611159744
5,hilo,19.7297,-155.09,69.8,78,90,5.75,US,1611159735
6,dikson,73.5069,80.5464,-10.14,92,100,9.33,RU,1611159744
7,nome,64.5011,-165.4064,8.6,66,100,10.36,US,1611159745
8,ust-ilimsk,58.0006,102.6619,-25.13,85,100,2.44,RU,1611159745
9,qaanaaq,77.484,-69.3632,24.33,84,100,10.89,GL,1611159745
10,georgetown,5.4112,100.3354,81.0,88,20,1.14,MY,1611159508
11,busselton,-33.65,115.3333,66.0,86,0,1.99,AU,1611159745
12,port alfred,-33.5906,26.891,71.01,83,69,1.99,ZA,1611159745
13,lebrija,36.9208,-6.0753,60.8,100,75,10.36,ES,1611159745
14,moose factory,51.2585,-80.6094,-5.8,77,90,12.66,CA,1611159745
15,avarua,-21.2078,-159.775,78.8,89,100,8.05,CK,1611159745
16,torbay,47.6666,-52.7314,30.0,74,75,28.77,CA,1611159745
17,coquimbo,-29.9533,-71.3436,64.4,72,75,12.66,CL,1611159745
18,saskylakh,71.9167,114.0833,-33.47,82,100,4.47,RU,1611159745
19,ushuaia,-54.8,-68.3,57.2,51,40,18.41,AR,1611159683
20,lagoa,39.05,-27.9833,62.49,89,60,27.36,PT,1611159746
21,punta arenas,-53.15,-70.9167,57.2,44,0,6.91,CL,1611159746
22,castro,-24.7911,-50.0119,66.29,97,100,1.79,BR,1611159746
23,yellowknife,62.456,-114.3525,-2.99,77,20,10.36,CA,1611159464
24,kapaa,22.0752,-159.319,73.4,88,40,12.66,US,1611159747
25,pisco,-13.7,-76.2167,75.0,73,0,8.05,PE,1611159747
26,vryburg,-26.9566,24.7284,86.88,37,93,2.19,ZA,1611159747
27,saint-philippe,-21.3585,55.7679,82.4,74,90,4.61,RE,1611159747
28,ust-kuyga,70.0167,135.6,-33.18,77,97,0.98,RU,1611159748
29,vao,-22.6667,167.4833,75.49,80,93,17.29,NC,1611159748
30,norman wells,65.282,-126.8329,6.8,78,75,6.91,CA,1611159748
31,maldonado,-34.6667,-54.9167,80.6,57,20,17.27,UY,1611159709
32,chuy,-33.6971,-53.4616,80.4,46,0,9.22,UY,1611159748
33,parrita,9.5201,-84.3225,80.6,57,20,23.02,CR,1611159748
34,hobart,-42.8794,147.3294,50.0,87,9,6.91,AU,1611159749
35,kampene,-3.6,26.6667,74.03,83,100,0.49,CD,1611159749
36,cape town,-33.9258,18.4232,75.0,60,0,20.71,ZA,1611159579
37,atar,20.5169,-13.0499,84.94,11,100,14.09,MR,1611159749
38,amuntai,-2.4177,115.2494,74.93,96,85,2.57,ID,1611159749
39,skegness,53.1436,0.3363,51.01,93,90,21.85,GB,1611159749
40,salalah,17.0151,54.0924,78.8,36,0,4.61,OM,1611159749
41,berbera,10.4396,45.0143,76.44,61,39,8.25,SO,1611159749
42,olivet,47.8622,1.8991,55.99,58,75,24.16,FR,1611159750
43,port-gentil,-0.7193,8.7815,86.0,70,40,9.22,GA,1611159750
44,tura,25.5198,90.2201,59.22,87,1,3.49,IN,1611159750
45,esperance,-33.8667,121.9,62.6,82,40,6.91,AU,1611159750
46,albany,42.6001,-73.9662,33.01,66,94,3.0,US,1611159750
47,deputatskiy,69.3,139.9,-34.35,86,75,0.72,RU,1611159751
48,monrovia,6.3005,-10.7969,87.8,74,75,6.91,LR,1611159751
49,klaksvik,62.2266,-6.589,35.6,100,20,10.36,FO,1611159751
50,bowen,-20.0167,148.2333,78.8,78,75,14.97,AU,1611159751
51,durusu,41.3053,28.6767,42.8,61,75,14.97,TR,1611159751
52,butaritari,3.0707,172.7902,79.65,82,56,18.68,KI,1611159751
53,port lincoln,-34.7333,135.8667,67.08,60,0,8.43,AU,1611159751
54,east london,-33.0153,27.9116,69.8,73,20,9.22,ZA,1611159751
55,maceio,-9.6658,-35.7353,84.2,70,75,11.5,BR,1611159752
56,lorengau,-2.0226,147.2712,81.41,77,100,10.83,PG,1611159752
57,codrington,-38.2667,141.9667,52.68,73,75,8.16,AU,1611159752
58,port blair,11.6667,92.75,78.04,66,62,8.48,IN,1611159504
59,victoria,22.2855,114.1577,66.0,79,95,9.22,HK,1611159630
60,vila velha,-20.3297,-40.2925,89.6,51,40,11.5,BR,1611159752
61,la baule-escoublac,47.2922,-2.364,52.0,87,100,24.16,FR,1611159752
62,moss point,30.4116,-88.5345,62.6,59,1,8.05,US,1611159752
63,bredasdorp,-34.5322,20.0403,71.6,60,4,17.27,ZA,1611159753
64,sistranda,63.7256,8.834,33.8,64,0,27.63,NO,1611159753
65,seoul,37.5683,126.9778,33.8,55,75,4.61,KR,1611159716
66,mar del plata,-38.0023,-57.5575,78.8,73,0,11.5,AR,1611159748
67,jamestown,42.097,-79.2353,24.01,86,90,8.05,US,1611159753
68,beringovskiy,63.05,179.3167,16.79,96,100,18.41,RU,1611159753
69,moron,-34.6534,-58.6198,90.0,33,0,8.05,AR,1611159753
70,oistins,13.0667,-59.5333,82.4,69,40,17.27,BB,1611159753
71,zhigansk,66.7697,123.3711,-46.44,75,88,7.83,RU,1611159753
72,halifax,44.6453,-63.5724,30.2,43,40,9.22,CA,1611159754
73,panino,51.6467,40.1346,3.2,78,75,8.95,RU,1611159754
74,vaini,-21.2,-175.2,77.0,100,75,3.44,TO,1611159754
75,mahebourg,-20.4081,57.7,80.6,89,75,3.44,MU,1611159754
76,hermanus,-34.4187,19.2345,77.0,59,0,7.0,ZA,1611159754
77,povenets,62.8487,34.8262,6.51,94,48,3.58,RU,1611159754
78,mataura,-46.1927,168.8643,53.01,83,79,11.99,NZ,1611159754
79,arraial do cabo,-22.9661,-42.0278,89.6,54,0,23.02,BR,1611159755
80,amazar,53.858,120.875,-19.34,83,100,2.66,RU,1611159755
81,mirpur sakro,24.5474,67.6277,64.4,77,0,7.76,PK,1611159755
82,thompson,55.7435,-97.8558,1.4,85,90,9.22,CA,1611159755
83,zeya,53.75,127.2667,-20.96,82,97,3.6,RU,1611159755
84,areka,7.0667,37.7,74.8,29,100,5.19,ET,1611159755
85,saint george,37.1041,-113.5841,46.0,53,90,3.44,US,1611159723
86,kudahuvadhoo,2.6708,72.8944,82.22,76,7,11.65,MV,1611159755
87,santa marta,11.2408,-74.199,86.0,64,5,15.01,CO,1611159756
88,corinto,37.9407,22.9573,51.01,41,0,1.99,GR,1611159756
89,darnah,32.767,22.6367,55.2,58,70,9.44,LY,1611159756
90,broome,42.2506,-75.833,28.0,80,90,13.8,US,1611159756
91,clyde river,70.4692,-68.5914,3.2,92,75,6.91,CA,1611159756
92,new norfolk,-42.7826,147.0587,48.99,74,3,2.46,AU,1611159756
93,waipawa,-41.4122,175.5153,57.99,62,20,20.71,NZ,1611159756
94,sisimiut,66.9395,-53.6735,29.26,86,94,7.43,GL,1611159756
95,larsnes,62.2028,5.5773,35.01,80,0,1.14,NO,1611159757
96,pocoes,-14.5297,-40.3653,77.32,63,68,7.31,BR,1611159757
97,tuktoyaktuk,69.4541,-133.0374,-2.2,84,90,8.05,CA,1611159757
98,bethel,41.3712,-73.414,35.6,64,90,10.36,US,1611159757
99,burla,21.5,83.8667,71.74,49,0,6.13,IN,1611159757
100,batemans bay,-35.7167,150.1833,46.0,89,12,3.58,AU,1611159757
101,zafarabad,25.7,82.7333,60.8,82,0,4.61,IN,1611159757
102,mokshan,53.4365,44.6132,-3.23,93,92,7.76,RU,1611159729
103,alofi,-19.0595,-169.9187,71.6,100,79,9.82,NU,1611159631
104,kribi,2.95,9.9167,82.17,75,77,9.31,CM,1611159638
105,tasiilaq,65.6145,-37.6368,10.4,72,20,3.44,GL,1611159758
106,oranjemund,-28.55,16.4333,69.15,68,11,13.89,NA,1611159758
107,richards bay,-28.783,32.0377,76.39,73,52,13.27,ZA,1611159758
108,bambous virieux,-20.3428,57.7575,82.0,89,75,3.44,MU,1611159758
109,ponta do sol,32.6667,-17.1,66.0,62,95,5.99,PT,1611159758
110,sundumbili,-29.1337,31.3975,75.2,73,90,9.22,ZA,1611159758
111,zhangye,38.9342,100.4517,21.76,69,52,5.23,CN,1611159758
112,aksarka,66.5606,67.7975,-18.36,88,100,11.12,RU,1611159758
113,shahreza,32.0339,51.8794,46.6,50,21,20.24,IR,1611159758
114,sinnar,13.5691,33.5672,80.47,19,1,13.42,SD,1611159758
115,dezful,32.3811,48.4058,60.03,44,100,2.46,IR,1611159759
116,darlawn,24.0167,92.9,54.28,93,67,1.01,IN,1611159759
117,banda aceh,5.5577,95.3222,77.5,85,100,11.56,ID,1611159494
118,college,64.8569,-147.8028,10.0,78,40,6.91,US,1611159759
119,bonavista,48.6499,-53.1147,28.99,68,86,11.5,CA,1611159759
120,upernavik,72.7868,-56.1549,32.79,87,100,12.41,GL,1611159759
121,puerto escondido,15.85,-97.0667,82.4,78,1,2.46,MX,1611159759
122,kahului,20.8947,-156.47,71.6,78,1,8.05,US,1611159759
123,angoram,-4.0625,144.0661,74.19,92,100,1.25,PG,1611159759
124,grand forks,47.9417,-97.4337,39.2,81,20,21.85,US,1611159759
125,leningradskiy,69.3833,178.4167,-26.01,78,0,2.46,RU,1611159760
126,whyalla,-33.0333,137.5833,69.8,60,0,6.91,AU,1611159760
127,nikolskoye,59.7035,30.7861,15.01,85,90,6.71,RU,1611159760
128,polillo,14.7122,121.9392,77.76,88,100,3.18,PH,1611159760
129,bure,10.7,37.0667,68.79,30,56,5.44,ET,1611159760
130,vanimo,-2.6741,141.3028,77.11,82,100,3.38,PG,1611159760
131,makakilo city,21.3469,-158.0858,73.4,83,1,3.44,US,1611159509
132,hervey bay,-25.2986,152.8535,75.99,83,75,6.91,AU,1611159760
133,trinidad,-14.8333,-64.9,86.0,58,75,6.91,BO,1611159761
134,longyearbyen,78.2186,15.6401,19.4,58,20,19.57,SJ,1611159704
135,lapas,38.1,21.4167,51.8,66,75,1.19,GR,1611159761
136,carnarvon,-24.8667,113.6333,77.0,94,75,19.57,AU,1611159761
137,fuerte,17.5381,120.3644,79.0,73,100,6.17,PH,1611159761
138,lima,-12.0432,-77.0282,73.4,73,40,8.05,PE,1611159759
139,myingyan,21.4667,95.3833,69.44,45,10,4.16,MM,1611159761
140,asau,46.4333,26.4,28.4,93,71,12.66,RO,1611159761
141,goderich,43.7501,-81.7165,23.0,63,100,11.5,CA,1611159739
142,najran,17.4924,44.1277,71.6,15,0,4.61,SA,1611159483
143,kathu,7.9178,98.3332,84.0,94,20,3.44,TH,1611159762
144,pierre,44.3683,-100.351,39.2,41,1,14.97,US,1611159473
145,ribeira grande,38.5167,-28.7,64.4,94,40,18.41,PT,1611159762
146,sitka,57.0531,-135.33,35.6,87,90,6.91,US,1611159762
147,dwarka,22.2394,68.9678,69.71,56,0,9.48,IN,1611159762
148,weligama,5.9667,80.4167,77.7,84,16,3.04,LK,1611159762
149,hofn,64.2539,-15.2082,30.2,55,75,23.02,IS,1611159762
150,maloy,61.9353,5.1136,41.0,56,75,13.8,NO,1611159763
151,chapais,49.7834,-74.8492,-2.2,78,1,2.3,CA,1611159763
152,huarmey,-10.0681,-78.1522,76.19,67,22,11.27,PE,1611159763
153,agadir,30.4202,-9.5982,68.0,52,0,11.5,MA,1611159763
154,luderitz,-26.6481,15.1594,75.29,55,6,13.53,NA,1611159763
155,moyale,3.5167,39.0584,81.88,24,100,12.01,KE,1611159486
156,nemuro,43.3236,145.575,20.43,89,72,14.65,JP,1611159763
157,kulhudhuffushi,6.6221,73.07,81.79,74,2,10.89,MV,1611159764
158,pangnirtung,66.1451,-65.7125,28.4,74,75,17.27,CA,1611159764
159,baie-comeau,49.2168,-68.1489,3.2,60,1,9.22,CA,1611159764
160,airai,-8.9266,125.4092,62.04,100,74,2.21,TL,1611159764
161,kodiak,57.79,-152.4072,39.2,87,90,10.36,US,1611159764
162,kurumkan,54.3,110.3,-4.09,81,100,2.37,RU,1611159764
163,mega,4.05,38.3,72.93,28,99,10.69,ET,1611159764
164,san policarpo,12.1791,125.5072,80.31,82,93,5.99,PH,1611159765
165,mazyr,52.0495,29.2456,13.3,94,94,12.73,BY,1611159765
166,imeni zhelyabova,58.9544,36.5956,14.68,97,79,6.58,RU,1611159765
167,nouakchott,18.0858,-15.9785,87.8,7,93,14.97,MR,1611159765
168,sayyan,15.1718,44.3244,52.88,44,0,1.1,YE,1611159765
169,port hardy,50.6996,-127.4199,39.2,100,90,2.3,CA,1611159766
170,tazovskiy,67.4667,78.7,-40.76,81,13,5.14,RU,1611159766
171,bandarbeyla,9.4942,50.8122,75.54,80,98,18.9,SO,1611159766
172,shangqiu,34.45,115.65,44.01,76,87,2.13,CN,1611159766
173,cidreira,-30.1811,-50.2056,76.41,67,75,12.24,BR,1611159488
174,posse,-14.0931,-46.3694,84.2,42,21,7.47,BR,1611159766
175,winnemucca,40.973,-117.7357,19.4,73,1,2.68,US,1611159766
176,camacha,33.0833,-16.3333,64.4,77,20,14.97,PT,1611159766
177,olinda,-8.0089,-34.8553,80.6,69,75,9.22,BR,1611159767
178,caravelas,-17.7125,-39.2481,85.03,54,0,9.57,BR,1611159767
179,nanortalik,60.1432,-45.2371,27.82,91,67,11.68,GL,1611159767
180,itaituba,-4.2761,-55.9836,77.0,100,90,2.3,BR,1611159767
181,chokurdakh,70.6333,147.9167,-37.68,83,20,4.45,RU,1611159767
182,winneba,5.3511,-0.6231,86.0,70,0,14.97,GH,1611159767
183,san patricio,28.017,-97.5169,62.6,88,90,10.36,US,1611159767
184,axim,4.8699,-2.2405,83.35,71,84,4.9,GH,1611159767
185,mehamn,71.0357,27.8492,21.2,86,90,9.22,NO,1611159767
186,calvinia,-31.4707,19.776,91.4,11,0,18.39,ZA,1611159768
187,barrow,71.2906,-156.7887,-5.8,84,90,12.66,US,1611159634
188,ancud,-41.8697,-73.8203,73.4,64,20,6.91,CL,1611159768
189,kruisfontein,-34.0033,24.7314,73.99,65,68,7.0,ZA,1611159768
190,petropavlovsk-kamchatskiy,53.0452,158.6483,6.8,78,90,6.71,RU,1611159768
191,saldanha,-33.0117,17.9442,84.2,28,0,18.41,ZA,1611159768
192,husavik,66.0449,-17.3389,26.6,93,90,9.22,IS,1611159768
193,port elizabeth,-33.918,25.5701,71.6,68,20,11.5,ZA,1611159505
194,cabiraoan,18.3238,122.086,75.81,91,100,13.02,PH,1611159768
195,sakakah,29.9697,40.2064,50.0,53,20,17.27,SA,1611159769
196,wang saphung,17.301,101.7685,62.01,95,0,2.35,TH,1611159769
197,kisangani,0.5167,25.2,80.67,69,30,4.45,CD,1611159770
198,puerto leguizamo,-0.1934,-74.7819,85.44,57,94,2.19,CO,1611159770
199,pevek,69.7008,170.3133,-34.13,83,36,5.06,RU,1611159770
200,okhotsk,59.3833,143.3,-9.94,81,78,5.97,RU,1611159770
201,bulgan,48.8125,103.5347,11.48,83,0,3.22,MN,1611159770
202,pasan,22.85,82.2,59.25,41,0,4.72,IN,1611159770
203,atuona,-9.8,-139.0333,77.4,78,78,16.98,PF,1611159770
204,santo domingo,18.5001,-69.9886,82.4,74,75,6.91,DO,1611159724
205,marzuq,14.4,46.4667,66.63,33,26,7.7,YE,1611159771
206,ixtapa,20.7,-105.2,71.6,83,90,4.61,MX,1611159771
207,galveston,29.3669,-94.9669,61.0,88,90,9.22,US,1611159771
208,sabzevar,36.2126,57.6819,51.8,35,0,0.78,IR,1611159771
209,sorland,67.667,12.6934,32.0,64,75,14.97,NO,1611159771
210,guhagar,17.4842,73.1929,76.73,63,0,6.67,IN,1611159771
211,urucara,-2.5364,-57.76,72.77,99,100,2.26,BR,1611159771
212,fortuna foothills,32.6578,-114.4119,57.0,94,90,10.36,US,1611159490
213,naron,43.5167,-8.1528,57.0,82,75,11.5,ES,1611159771
214,berlevag,70.8578,29.0864,21.2,73,75,9.22,NO,1611159771
215,iacu,-12.7672,-40.2117,86.34,46,64,9.01,BR,1611159771
216,vysokogornyy,50.1167,139.15,-8.63,86,100,1.97,RU,1611159773
217,xining,36.6167,101.7667,24.31,63,95,2.01,CN,1611159773
218,beloha,-25.1667,45.05,79.56,80,28,18.05,MG,1611159773
219,bengkulu,-3.8004,102.2655,77.94,80,99,5.75,ID,1611159773
220,chifeng,42.2683,118.9636,14.23,87,25,4.59,CN,1611159773
221,narsaq,60.9167,-46.05,39.2,28,75,27.63,GL,1611159773
222,praia da vitoria,38.7333,-27.0667,66.2,82,20,17.81,PT,1611159773
223,kalmunai,7.4167,81.8167,79.07,84,4,4.81,LK,1611159773
224,itacoatiara,-3.1431,-58.4442,74.23,95,86,5.01,BR,1611159773
225,askino,56.0901,56.5783,-8.14,90,100,9.4,RU,1611159669
226,namatanai,-3.6667,152.4333,79.32,75,99,7.52,PG,1611159774
227,adamovka,51.5223,59.9396,-7.11,91,48,11.27,RU,1611159774
228,am timan,11.0297,20.2827,87.35,13,69,5.1,TD,1611159774
229,ketchikan,55.3422,-131.6461,33.8,100,90,2.17,US,1611159774
230,kismayo,-0.3582,42.5454,79.66,80,93,17.81,SO,1611159774
231,lebu,-37.6167,-73.65,64.2,67,0,19.28,CL,1611159774
232,tashigang,27.3331,91.5542,49.28,68,99,1.99,BT,1611159774
233,tateyama,34.9833,139.8667,42.8,65,75,5.75,JP,1611159774
234,lavrentiya,65.5833,-171.0,-10.3,84,100,10.0,RU,1611159774
235,benguela,-12.5763,13.4055,82.44,55,56,12.15,AO,1611159774
236,paka,4.6374,103.4368,75.2,94,100,3.44,MY,1611159775
237,ahipara,-35.1667,173.1667,57.72,69,0,10.25,NZ,1611159775
238,guantanamo,20.1444,-75.2092,86.0,54,20,4.61,CU,1611159775
239,bad hofgastein,47.1667,13.1,34.0,94,60,8.5,AT,1611159775
240,teya,60.3778,92.6267,-23.35,82,100,4.5,RU,1611159775
241,margate,51.3813,1.3862,48.99,73,100,8.01,GB,1611159775
242,buritizeiro,-17.3511,-44.9622,84.34,50,2,6.02,BR,1611159775
243,conceicao do mato dentro,-19.0372,-43.425,79.5,56,53,5.91,BR,1611159775
244,morbegno,46.1383,9.57,39.99,72,86,3.78,IT,1611159775
245,kabalo,-6.05,26.9167,75.96,91,89,2.39,CD,1611159776
246,rantepao,-2.9701,119.8978,68.92,89,100,2.35,ID,1611159720
247,arrifes,37.7667,-25.7,63.0,94,75,20.71,PT,1611159776
248,guerrero negro,27.9769,-114.0611,65.41,71,30,17.83,MX,1611159776
249,balykshi,47.0667,51.8667,12.2,85,40,6.71,KZ,1611159776
250,gabu,12.2833,-14.2167,103.82,7,11,5.03,GW,1611159776
251,buchanan,5.8808,-10.0467,89.6,62,75,5.75,LR,1611159545
252,aklavik,68.2191,-135.0107,5.0,85,90,3.44,CA,1611159776
253,cockburn town,21.4612,-71.1419,80.6,65,40,9.22,TC,1611159776
254,birao,10.2849,22.7882,81.09,15,88,7.74,CF,1611159777
255,yeniseysk,58.4497,92.1703,-25.4,85,96,2.39,RU,1611159777
256,srednekolymsk,67.45,153.6833,-35.39,82,100,1.66,RU,1611159777
257,port hedland,-20.3167,118.5667,84.2,84,63,5.75,AU,1611159777
258,hovd,48.0056,91.6419,12.29,82,80,0.74,MN,1611159777
259,zhezkazgan,47.8043,67.7144,13.5,95,100,5.28,KZ,1611159777
260,kalianget,-7.05,113.9333,79.68,83,100,11.27,ID,1611159777
261,faanui,-16.4833,-151.75,80.24,76,14,12.8,PF,1611159777
262,san rafael,-34.6177,-68.3301,91.11,16,0,16.06,AR,1611159778
263,chimoio,-19.1164,33.4833,69.8,100,75,4.05,MZ,1611159778
264,talnakh,69.4865,88.3972,-38.65,80,88,1.07,RU,1611159778
265,tymoshivka,47.1842,35.1088,8.55,93,3,4.81,UA,1611159778
266,kununurra,-15.7667,128.7333,78.8,100,98,3.44,AU,1611159757
267,khatanga,71.9667,102.5,-27.6,86,100,7.94,RU,1611159778
268,griffith,41.5284,-87.4237,19.99,68,1,10.36,US,1611159778
269,mount gambier,-37.8333,140.7667,51.8,93,96,5.75,AU,1611159778
270,mahayag,8.1183,123.4455,75.97,84,100,0.69,PH,1611159779
271,mahe,11.7,75.5333,78.01,81,33,4.54,IN,1611159779
272,araguari,-18.6472,-48.1872,82.4,39,20,10.36,BR,1611159779
273,coahuayana,18.7333,-103.6833,68.0,83,90,2.71,MX,1611159779
274,bestobe,52.4994,73.0975,12.45,94,73,17.49,KZ,1611159779
275,karratha,-20.7377,116.8463,93.09,37,99,11.5,AU,1611159779
276,kirillov,59.863,38.3813,23.0,93,90,6.71,RU,1611159779
277,muzhi,65.3667,64.6667,-13.25,89,100,11.43,RU,1611159671
278,bilibino,68.0546,166.4372,-35.18,77,76,0.85,RU,1611159779
279,fengzhen,40.4394,113.1536,20.26,75,100,2.39,CN,1611159780
280,jalu,29.0331,21.5482,52.3,44,0,6.93,LY,1611159780
281,yuli,9.6989,10.2744,91.42,12,0,8.72,NG,1611159780
282,san matias,-16.3667,-58.4,85.03,70,84,3.69,BO,1611159780
283,ilulissat,69.2167,-51.1,28.4,64,75,5.75,GL,1611159780
284,kavieng,-2.5744,150.7967,81.36,77,100,11.61,PG,1611159780
285,antiguo morelos,22.5495,-99.0812,71.01,88,100,4.0,MX,1611159780
286,poum,-20.2333,164.0167,79.57,79,100,15.79,NC,1611159780
287,hobyo,5.3505,48.5268,78.91,80,97,21.07,SO,1611159781
288,sohag,26.557,31.6948,59.0,41,0,12.66,EG,1611159781
289,hithadhoo,-0.6,73.0833,81.72,75,33,9.26,MV,1611159781
290,sambava,-14.2667,50.1667,79.79,81,100,10.96,MG,1611159781
291,ayabaca,-4.6398,-79.7149,60.21,76,80,4.85,PE,1611159781
292,mount pleasant,32.7941,-79.8626,62.01,44,1,10.36,US,1611159677
293,izhma,65.0083,53.9113,0.72,93,100,3.51,RU,1611159782
294,cheremukhovo,60.3484,59.9851,-1.34,93,100,2.06,RU,1611159669
295,hay river,60.8156,-115.7999,6.8,72,100,11.5,CA,1611159782
296,paamiut,61.994,-49.6678,29.46,84,77,5.84,GL,1611159782
297,cherskiy,68.75,161.3,-45.8,76,53,5.3,RU,1611159782
298,simbahan,6.3032,120.5836,81.79,83,59,11.36,PH,1611159782
299,portland,45.5234,-122.6762,35.01,93,75,0.72,US,1611159765
300,lidzbark warminski,54.1259,20.5795,34.14,97,100,12.77,PL,1611159782
301,omboue,-1.5746,9.2618,81.63,76,47,7.45,GA,1611159782
302,kaitangata,-46.2817,169.8464,52.0,75,98,11.99,NZ,1611159782
303,valentin gomez farias,28.2167,-106.5833,48.0,96,100,1.01,MX,1611159783
304,labuhan,-6.8844,112.2051,78.64,86,100,7.43,ID,1611159783
305,karpogory,64.0019,44.4451,-6.3,91,100,5.35,RU,1611159668
306,dali,25.7,100.1833,44.96,82,52,4.14,CN,1611159783
307,almaznyy,48.0448,40.045,-4.0,84,9,4.47,RU,1611159783
308,coihaique,-45.5752,-72.0662,71.6,49,75,8.05,CL,1611159783
309,konevo,62.1215,39.3192,3.43,94,74,4.5,RU,1611159783
310,koutsouras,35.0339,25.9469,48.99,61,0,3.78,GR,1611159783
311,gerash,27.6652,54.1371,62.6,29,0,3.96,IR,1611159783
312,arlit,18.7369,7.3853,80.55,14,0,8.39,NE,1611159783
313,lerwick,60.1545,-1.1494,39.2,81,40,26.46,GB,1611159783
314,tukums,56.9669,23.1553,21.2,86,40,13.8,LV,1611159558
315,lahij,13.1667,44.5833,73.13,54,31,9.13,YE,1611159783
316,rio gallegos,-51.6226,-69.2181,71.6,37,75,8.05,AR,1611159783
317,severo-kurilsk,50.6789,156.125,20.43,95,100,29.97,RU,1611159784
318,katsuura,35.1333,140.3,42.8,65,75,5.75,JP,1611159784
319,wilmington,34.2257,-77.9447,59.0,44,1,14.97,US,1611159753
320,togitsu,32.8333,129.85,46.0,87,65,3.0,JP,1611159784
321,sassandra,4.95,-6.0833,83.68,69,25,6.2,CI,1611159784
322,honiara,-9.4333,159.95,77.95,81,71,0.87,SB,1611159784
323,coolum beach,-26.5333,153.1,75.0,79,49,1.01,AU,1611159784
324,ovalle,-30.5983,-71.2003,82.49,29,0,8.75,CL,1611159784
325,assiniboia,49.6334,-105.9845,26.6,59,25,28.77,CA,1611159784
326,tabou,4.423,-7.3528,83.66,68,78,6.13,CI,1611159784
327,sao miguel do iguacu,-25.3481,-54.2378,82.4,94,75,5.75,BR,1611159784
328,kavaratti,10.5669,72.642,82.63,70,0,7.58,IN,1611159784
329,gorahun,7.4661,-11.2375,95.36,31,3,0.89,SL,1611159785
330,palmer,42.1584,-72.3287,35.01,64,75,10.36,US,1611159785
331,grivenskaya,45.6473,38.176,13.24,95,51,4.09,RU,1611159785
332,havoysund,70.9963,24.6622,15.8,73,20,5.75,NO,1611159785
333,lexington,37.9887,-84.4777,34.0,59,20,6.91,US,1611159785
334,gamba,-2.65,10.0,80.94,80,36,6.69,GA,1611159785
335,henties bay,-22.116,14.2845,69.01,84,64,4.0,NA,1611159785
336,gat,31.61,34.7642,52.0,19,20,14.94,IL,1611159785
337,patu,-6.11,-37.6367,91.09,37,86,9.28,BR,1611159666
338,vitim,59.4511,112.5578,-26.95,83,100,2.68,RU,1611159785
339,fortuna,40.5982,-124.1573,39.0,80,1,12.66,US,1611159527
340,namibe,-15.1961,12.1522,84.2,48,0,14.97,AO,1611159785
341,riyadh,24.6877,46.7219,77.0,16,0,10.36,SA,1611159486
342,tukrah,32.5341,20.5791,54.55,56,35,5.17,LY,1611159602
343,lavumisa,-27.31,31.892,86.0,54,98,11.5,SZ,1611159786
344,havelock,34.8791,-76.9013,57.0,47,40,18.41,US,1611159637
345,cabo san lucas,22.8909,-109.9124,64.4,77,90,4.61,MX,1611159690
346,dingle,10.9995,122.6711,75.6,92,100,3.47,PH,1611159786
347,sao joao da barra,-21.6403,-41.0511,89.6,45,0,16.11,BR,1611159786
348,acapulco,16.8634,-99.8901,82.4,65,40,4.61,MX,1611159786
349,armeria,18.9333,-103.9667,75.2,83,90,3.85,MX,1611159786
350,pimentel,-6.8367,-79.9342,77.0,65,0,14.97,PE,1611159685
351,novoagansk,61.9449,76.6625,-26.0,85,53,5.26,RU,1611159671
352,pearl,32.2746,-90.132,54.0,66,75,6.91,US,1611159786
353,atambua,-9.1061,124.8925,75.0,91,100,1.32,ID,1611159787
354,byron bay,-28.65,153.6167,66.2,94,90,5.75,AU,1611159787
355,huangcun,30.0145,118.4037,53.01,71,0,0.98,CN,1611159787
356,nhulunbuy,-12.2333,136.7667,80.6,94,100,5.06,AU,1611159787
357,bud,39.447,-86.1758,28.4,64,1,8.23,US,1611159787
358,elbistan,38.2059,37.1983,15.28,88,0,4.9,TR,1611159787
359,vestmannaeyjar,63.4427,-20.2734,28.4,80,20,21.85,IS,1611159787
360,pinawa,50.1489,-95.8811,29.1,98,100,14.81,CA,1611159787
361,vilyuysk,63.7553,121.6247,-40.23,81,100,3.56,RU,1611159787
362,kamenka,51.3223,42.7678,-5.58,92,86,7.29,RU,1611159787
363,suratgarh,29.3167,73.9,58.6,34,12,4.38,IN,1611159787
364,bollnas,61.3482,16.3946,32.0,98,100,10.54,SE,1611159787
365,celestun,20.8667,-90.4,76.95,76,14,10.6,MX,1611159787
366,hasaki,35.7333,140.8333,30.2,74,40,4.61,JP,1611159787
367,chuka,-0.3332,37.6459,66.56,69,100,4.85,KE,1611159788
368,locharbriggs,55.1034,-3.5844,35.6,93,75,4.61,GB,1611159788
369,kampen,52.555,5.9111,51.01,74,100,3.0,NL,1611159788
370,egvekinot,66.3167,-179.1667,-8.86,85,100,8.08,RU,1611159788
371,vardo,70.3705,31.1107,23.0,68,40,9.22,NO,1611159789
372,denpasar,-8.65,115.2167,82.4,83,40,12.66,ID,1611159703
373,moerai,-22.4333,-151.3333,80.6,71,12,10.74,PF,1611159789
374,guangyuan,32.442,105.823,39.0,53,100,4.0,CN,1611159789
375,micheweni,-4.9667,39.8333,80.89,77,6,15.95,TZ,1611159790
376,uspenka,48.3903,39.1619,0.19,91,17,3.36,UA,1611159790
377,tignere,7.3667,12.65,83.01,15,15,8.57,CM,1611159790
378,provideniya,64.3833,-173.3,-8.43,86,79,14.34,RU,1611159790
379,primorsko-akhtarsk,46.0497,38.1747,15.01,96,97,5.68,RU,1611159790
380,banon,40.8382,-1.1909,51.8,66,100,11.5,ES,1611159790
381,mildura,-34.2,142.15,60.8,25,82,3.44,AU,1611159791
382,luau,-10.7073,22.2247,73.96,85,28,4.76,AO,1611159791
383,burns lake,54.2331,-125.7533,3.2,92,54,1.63,CA,1611159791
384,kloulklubed,7.0419,134.2556,80.6,83,75,8.05,PW,1611159791
385,maragogi,-9.0122,-35.2225,83.88,63,99,11.63,BR,1611159747
386,lompoc,34.6391,-120.4579,57.2,65,0,3.44,US,1611159492
387,puerto del rosario,28.5004,-13.8627,66.2,68,20,6.91,ES,1611159791
388,teruel,40.6667,-0.6667,46.99,81,0,11.5,ES,1611159791
389,guarda,40.5373,-7.2658,52.0,84,100,8.99,PT,1611159603
390,mokhsogollokh,61.4681,128.9203,-35.3,83,100,1.03,RU,1611159792
391,belen,36.4891,36.2233,42.8,42,0,13.8,TR,1611159792
392,kabanjahe,3.1001,98.4908,77.0,100,40,3.44,ID,1611159792
393,visby,57.6409,18.296,39.0,100,90,12.66,SE,1611159792
394,saint-pierre,-21.3393,55.4781,82.4,74,90,4.61,RE,1611159792
395,north battleford,52.7834,-108.2847,30.2,59,1,23.02,CA,1611159792
396,lesnoy,57.6198,63.0784,0.16,94,100,2.51,RU,1611159793
397,casa nova,-9.4167,-41.1333,87.8,48,40,13.8,BR,1611159793
398,mabaruma,8.2,-59.7833,80.6,83,40,6.91,GY,1611159793
399,kachiry,53.0675,76.1036,7.75,95,100,9.46,KZ,1611159793
400,normandin,48.8333,-72.5321,1.4,65,99,3.44,CA,1611159793
401,boone,39.0334,-92.3335,37.0,70,0,12.95,US,1611159793
402,te anau,-45.4167,167.7167,47.79,88,100,4.9,NZ,1611159793
403,geraldton,-28.7667,114.6,75.2,73,90,14.97,AU,1611159794
404,mahajanga,-15.7167,46.3167,73.4,100,40,33.38,MG,1611159794
405,pottsville,40.6857,-76.1955,34.0,63,26,8.99,US,1611159794
406,fujin,47.26,132.0322,1.17,94,100,3.69,CN,1611159794
407,evensk,61.95,159.2333,-14.64,76,1,10.04,RU,1611159794
408,lodwar,3.1191,35.5973,92.98,23,100,10.92,KE,1611159794
409,padang,-0.9492,100.3543,75.2,94,20,1.14,ID,1611159794
410,fort frances,48.5999,-93.4003,18.0,73,75,12.66,CA,1611159795
411,neka,36.6508,53.299,50.0,87,75,1.79,IR,1611159503
412,naifaru,5.4444,73.3657,81.97,72,1,9.46,MV,1611159795
413,batagay-alyta,67.8006,130.4114,-32.78,81,69,1.07,RU,1611159795
414,dalian,38.9122,121.6022,33.8,93,75,6.96,CN,1611159795
415,miles city,46.4083,-105.8406,35.6,48,1,17.27,US,1611159795
416,silvassa,20.2667,73.0167,69.51,32,0,3.02,IN,1611159795
417,coldingham,55.8868,-2.157,36.0,94,100,1.01,GB,1611159795
418,hailey,43.5196,-114.3153,10.4,67,20,11.5,US,1611159796
419,baran,25.1,76.5167,63.05,38,0,2.95,IN,1611159796
420,nuuk,64.1835,-51.7216,28.4,74,40,8.05,GL,1611159664
421,parabel,58.6978,81.4825,-25.65,85,39,4.99,RU,1611159796
422,keningau,5.3378,116.1602,77.0,100,20,2.3,MY,1611159796
423,araouane,18.9048,-3.5265,86.05,12,8,9.69,ML,1611159796
424,langarud,37.197,50.1535,44.6,100,90,11.5,IR,1611159796
425,prince rupert,54.3161,-130.3201,37.4,93,1,5.75,CA,1611159796
426,tricase,39.9304,18.3553,54.0,71,40,6.91,IT,1611159796
427,mehran,33.1222,46.1646,37.4,93,90,4.61,IR,1611159797
428,manokwari,-0.8667,134.0833,78.82,69,60,2.53,ID,1611159797
429,sola,-13.8833,167.55,82.54,72,86,4.18,VU,1611159797
430,hemnesberget,66.2333,13.6333,24.8,54,75,19.57,NO,1611159797
431,aguimes,27.9054,-15.4461,66.2,68,75,4.61,ES,1611159797
432,wanning,18.8003,110.3967,69.89,91,73,6.91,CN,1611159797
433,pozo colorado,-23.4923,-58.7972,90.63,26,50,4.9,PY,1611159797
434,novonikolayevskiy,50.9738,42.3649,-5.01,80,49,7.18,RU,1611159797
435,ajdabiya,30.7554,20.2263,56.08,47,0,3.33,LY,1611159797
436,manta,-0.95,-80.7333,77.0,83,75,4.61,EC,1611159680
437,tomatlan,19.9333,-105.25,75.4,65,98,4.5,MX,1611159798
438,faya,18.3851,42.4509,59.0,82,0,6.91,SA,1611159798
439,saint-leu,-21.15,55.2833,82.4,74,90,4.61,RE,1611159798
440,pavlogradka,54.2024,73.5592,4.35,94,100,11.81,RU,1611159798
441,gurupa,-1.405,-51.64,73.42,97,100,3.42,BR,1611159798
442,soyo,-6.1349,12.3689,87.8,66,75,8.05,AO,1611159798
443,inuvik,68.3499,-133.7218,1.4,85,100,4.61,CA,1611159798
444,dakar,14.6937,-17.4441,75.2,43,27,13.8,SN,1611159513
445,xingyi,24.1877,102.817,44.89,94,1,3.6,CN,1611159798
446,san quintin,30.4833,-115.95,61.74,73,100,18.92,MX,1611159798
447,papetoai,-17.4961,-149.8729,75.2,83,20,2.3,PF,1611159798
448,bagdarin,54.4333,113.6,-11.52,79,52,5.21,RU,1611159799
449,whitecourt,54.1502,-115.6855,30.2,47,40,26.46,CA,1611159799
450,los llanos de aridane,28.6585,-17.9182,68.0,64,0,8.05,ES,1611159799
451,gizo,-8.103,156.8419,82.4,74,100,10.16,SB,1611159799
452,palermo,37.8167,13.5833,57.99,56,69,3.0,IT,1611159784
453,kota tinggi,1.7381,103.8999,77.0,88,20,1.14,MY,1611159800
454,anstruther,56.2231,-2.7023,37.4,93,90,4.61,GB,1611159800
455,rutana,-3.8667,30.1,63.0,98,100,1.12,BI,1611159801
456,collierville,35.042,-89.6645,44.6,42,75,5.75,US,1611159682
457,carballo,43.213,-8.691,54.0,89,100,5.99,ES,1611159801
458,mikhaylovka,50.06,43.2379,-7.01,84,66,6.96,RU,1611159801
459,merauke,-8.4667,140.3333,81.39,81,100,6.55,ID,1611159801
460,kalamata,37.0389,22.1142,52.0,58,20,5.77,GR,1611159801
461,laguna,38.421,-121.4238,45.0,52,1,4.61,US,1611159801
462,bubaque,11.2833,-15.8333,78.66,54,1,12.01,GW,1611159801
463,saint anthony,45.0205,-93.218,26.01,68,1,12.66,US,1611159802
464,mount isa,-20.7333,139.5,84.2,51,75,5.75,AU,1611159802
465,naze,28.3667,129.4833,61.43,74,87,12.71,JP,1611159802
466,batagay,67.6333,134.6333,-31.68,83,100,0.92,RU,1611159802
467,meulaboh,4.1363,96.1285,78.26,82,98,2.17,ID,1611159802
468,rawson,-43.3002,-65.1023,86.07,26,0,10.16,AR,1611159802
469,longkou,37.6508,120.3286,36.0,88,2,7.63,CN,1611159802
470,lisakovsk,52.5369,62.4936,-2.61,91,0,11.43,KZ,1611159802
471,half moon bay,37.4636,-122.4286,53.01,29,1,3.44,US,1611159802
472,boda,4.3189,17.4695,95.22,13,90,7.43,CF,1611159802
473,rafaela,-31.2503,-61.4867,86.0,30,10,5.99,AR,1611159803
474,tuy hoa,13.0833,109.3,69.51,90,70,6.85,VN,1611159803
475,okha,53.5739,142.9478,-18.04,82,14,5.7,RU,1611159803
476,guane,22.2025,-84.0875,75.63,63,24,10.49,CU,1611159803
477,linxia,35.6003,103.2064,29.26,80,49,1.68,CN,1611159803
478,vostok,46.4856,135.8833,4.53,95,100,4.47,RU,1611159804
479,itoman,26.1247,127.6694,68.0,77,75,8.05,JP,1611159804
480,baruun-urt,46.6806,113.2792,8.53,90,10,14.47,MN,1611159804
481,bealanana,-14.55,48.7333,65.71,91,100,3.71,MG,1611159805
482,yining,29.0361,114.5636,54.64,61,97,1.74,CN,1611159805
483,tarko-sale,64.9225,77.785,-30.3,85,11,3.11,RU,1611159805
484,ampanihy,-24.7,44.75,81.73,74,39,16.82,MG,1611159805
485,salamiyah,35.0113,37.0532,41.14,68,50,14.43,SY,1611159805
486,koygorodok,60.445,50.9968,2.43,94,97,4.45,RU,1611159805
487,bundibugyo,0.7414,30.0417,79.12,42,98,2.17,UG,1611159805
488,abu road,24.4833,72.7833,65.52,31,0,4.18,IN,1611159806
489,belaya gora,68.5333,146.4167,-45.53,80,38,1.66,RU,1611159806
490,kushnarenkovo,55.105,55.3508,1.4,78,90,13.42,RU,1611159806
491,koumac,-20.5667,164.2833,76.6,84,100,12.59,NC,1611159806
492,peski,55.2163,38.7626,19.4,79,0,6.71,RU,1611159806
493,ulladulla,-35.35,150.4667,55.4,94,71,2.26,AU,1611159806
494,poya,-21.35,165.15,74.55,87,89,8.59,NC,1611159807
495,sembakung,3.8167,117.25,80.6,94,75,12.66,ID,1611159807
496,raudeberg,61.9875,5.1352,37.99,66,100,9.78,NO,1611159807
497,andujar,38.0392,-4.0508,52.0,83,100,11.99,ES,1611159807
498,topeka,39.0483,-95.678,43.0,52,1,9.22,US,1611159807
499,sioux lookout,50.1001,-91.917,14.0,79,90,13.8,CA,1611159807
500,awbari,26.5921,12.7805,60.03,33,100,9.01,LY,1611159808
501,manacapuru,-3.2997,-60.6206,73.4,94,75,2.3,BR,1611159808
502,suntar,62.1444,117.6319,-52.28,76,87,4.09,RU,1611159808
503,sao desiderio,-12.3633,-44.9733,84.54,46,40,5.17,BR,1611159808
504,shamary,57.3434,58.2199,-4.61,90,100,7.87,RU,1611159808
505,ozernovskiy,51.5,156.5167,11.14,94,100,13.38,RU,1611159808
506,ivanovka,42.8878,75.085,37.4,75,100,13.42,KG,1611159808
507,gawler,-34.6,138.7333,70.0,24,0,1.01,AU,1611159809
508,linjiang,41.8069,126.9078,17.53,93,67,2.53,CN,1611159809
509,gucheng,35.9115,111.3192,40.8,61,100,1.5,CN,1611159809
510,fuerte olimpo,-21.0415,-57.8738,83.26,72,98,0.69,PY,1611159809
511,strezhevoy,60.7333,77.5889,-25.6,75,0,4.47,RU,1611159809
512,uruzgan,32.8333,66.0,42.53,54,75,6.33,AF,1611159809
513,bosaso,11.2842,49.1816,74.91,69,100,7.09,SO,1611159809
514,juneau,58.3019,-134.4197,35.6,80,90,2.59,US,1611159810
515,badou,7.5833,0.6,94.82,18,39,1.83,TG,1611159810
516,siderno,38.2779,16.302,57.99,67,100,10.36,IT,1611159810
517,kendari,-3.945,122.4989,77.83,88,99,1.3,ID,1611159810
518,mpika,-11.8343,31.4529,65.55,95,100,3.22,ZM,1611159810
519,varna,43.2167,27.9167,39.2,56,0,3.44,BG,1611159810
520,lazaro cardenas,17.9583,-102.2,81.19,46,100,1.95,MX,1611159810
521,lugovoy,42.9472,72.7644,34.47,86,68,6.69,KZ,1611159811
522,inirida,3.8653,-67.9239,81.9,80,99,3.13,CO,1611159811
523,pemangkat,1.1667,108.9667,78.37,87,100,9.73,ID,1611159811
524,acajutla,13.5928,-89.8275,78.8,53,0,4.61,SV,1611159811
525,srandakan,-7.9386,110.2506,79.41,83,100,2.26,ID,1611159662
526,necochea,-38.5473,-58.7368,91.0,38,0,5.99,AR,1611159669
527,pavilosta,56.8879,21.1859,24.8,93,90,11.5,LV,1611159812
528,flagstaff,35.1981,-111.6513,30.0,86,1,5.75,US,1611159703
529,kirakira,-10.4544,161.9205,80.73,79,74,6.2,SB,1611159812
530,iqaluit,63.7506,-68.5145,6.8,66,75,19.57,CA,1611159813
531,sawakin,19.1059,37.3321,73.33,71,100,21.99,SD,1611159813
532,bilma,18.6853,12.9164,73.92,19,0,5.97,NE,1611159813
533,acarau,-2.8856,-40.12,84.79,63,91,16.06,BR,1611159639
534,pleasanton,37.6624,-121.8747,51.01,48,1,2.28,US,1611159814
535,cesky dub,50.6605,14.9962,37.0,74,94,7.0,CZ,1611159814
536,magadan,59.5667,150.8,-10.16,76,0,4.79,RU,1611159814
537,kautokeino,69.0125,23.0412,2.8,92,100,3.71,NO,1611159815
538,komsomolskiy,40.4272,71.7189,46.4,49,68,11.5,UZ,1611159816
539,mindelo,16.8901,-24.9804,75.2,57,75,25.32,CV,1611159816
540,pitimbu,-7.4706,-34.8086,84.2,70,75,14.97,BR,1611159816
541,sunndalsora,62.6754,8.5515,35.6,60,0,16.11,NO,1611159817
542,buraydah,26.326,43.975,62.6,45,0,11.5,SA,1611159817
543,curup,-3.4667,102.5333,68.2,93,87,2.33,ID,1611159818
544,corn island,12.1694,-83.0418,80.58,77,28,24.58,NI,1611159818
545,hvide sande,56.0045,8.1294,45.0,100,75,18.41,DK,1611159818
546,angoche,-16.2325,39.9086,83.91,77,100,10.78,MZ,1611159818
547,derzhavinsk,51.1,66.3167,-0.71,93,97,14.16,KZ,1611159818
548,general roca,-39.0333,-67.5833,87.8,35,0,8.05,AR,1611159818
549,the valley,18.217,-63.0578,84.2,65,20,17.27,AI,1611159818
550,amapa,1.0,-52.0,73.33,97,100,1.43,BR,1611159818
551,lazurne,46.084,32.5295,21.2,73,90,13.42,UA,1611159819
552,teguise,29.0605,-13.564,68.0,68,20,11.5,ES,1611159819
553,sokolo,14.7328,-6.1219,95.63,9,16,12.15,ML,1611159819
554,narbonne,43.0833,2.8333,55.99,63,86,5.01,FR,1611159819
555,talakan,50.3167,130.3667,-4.13,90,100,2.24,RU,1611159819
556,skjervoy,70.0311,20.9714,19.4,68,20,17.27,NO,1611159819
557,progreso,21.2833,-89.6667,79.0,69,75,11.5,MX,1611159819
558,sorong,-0.8833,131.25,79.11,85,25,4.59,ID,1611159819
559,nago,26.5881,127.9761,68.0,77,90,8.05,JP,1611159819
560,bereda,43.2686,-7.5406,53.01,99,98,11.99,ES,1611159819
561,gorontalo,0.5412,123.0595,76.89,88,65,2.3,ID,1611159820
562,fos-sur-mer,43.4377,4.9446,57.2,76,90,20.71,FR,1611159820
563,cayenne,4.9333,-52.3333,86.0,62,75,11.5,GF,1611159820
564,takoradi,4.8845,-1.7554,83.55,71,81,6.76,GH,1611159820
565,basco,20.4487,121.9702,76.32,87,100,26.6,PH,1611159820
566,lashio,22.9333,97.75,52.74,78,18,2.13,MM,1611159821
567,kirkkonummi,60.1238,24.4385,24.01,98,100,9.73,FI,1611159821
568,harnosand,62.6323,17.9379,32.0,86,20,8.05,SE,1611159821
